{
"type": "FeatureCollection",
"name": "收费站",
"crs": { "type": "name", "properties": { "name": "urn:ogc:def:crs:OGC:1.3:CRS84" } },
"features": [
{ "type": "Feature", "properties": { "Name": "围场北收费站", "Comment": null, "Lat": 41.9772, "Lng": 117.738, "LB": "收费站", "lx": "红色旅游路路线,旅游环线" }, "geometry": { "type": "Point", "coordinates": [ 117.738139629740203, 41.977183179660074 ] } },
{ "type": "Feature", "properties": { "Name": "围场南收费站", "Comment": null, "Lat": 41.8554, "Lng": 117.802, "LB": "收费站", "lx": "红色旅游路路线,旅游环线" }, "geometry": { "type": "Point", "coordinates": [ 117.802169319758377, 41.855410030148846 ] } },
{ "type": "Feature", "properties": { "Name": "蓝旗卡伦收费站", "Comment": null, "Lat": 41.771, "Lng": 117.988, "LB": "收费站", "lx": "承德市省级美丽农村路,旅游环线" }, "geometry": { "type": "Point", "coordinates": [ 117.987767460100258, 41.770951599536716 ] } },
{ "type": "Feature", "properties": { "Name": "头沟收费站", "Comment": null, "Lat": 41.1493, "Lng": 118.054, "LB": "收费站", "lx": "旅游环线" }, "geometry": { "type": "Point", "coordinates": [ 118.05405020994931, 41.149261839762175 ] } },
{ "type": "Feature", "properties": { "Name": "两家收费站", "Comment": null, "Lat": 41.301, "Lng": 118.04, "LB": "收费站", "lx": "旅游环线" }, "geometry": { "type": "Point", "coordinates": [ 118.040011530208062, 41.300971189868562 ] } },
{ "type": "Feature", "properties": { "Name": "七家收费站", "Comment": null, "Lat": 41.464, "Lng": 118.106, "LB": "收费站", "lx": "承德市省级美丽农村路,旅游环线" }, "geometry": { "type": "Point", "coordinates": [ 118.105602259836473, 41.464043609824785 ] } },
{ "type": "Feature", "properties": { "Name": "机场收费站", "Comment": null, "Lat": 41.0981, "Lng": 118.059, "LB": "收费站", "lx": "旅游环线" }, "geometry": { "type": "Point", "coordinates": [ 118.059436079711418, 41.098143579662519 ] } },
{ "type": "Feature", "properties": { "Name": "六沟收费站", "Comment": null, "Lat": 40.9873, "Lng": 118.266, "LB": "收费站", "lx": null }, "geometry": { "type": "Point", "coordinates": [ 118.266218300334344, 40.987292610065936 ] } },
{ "type": "Feature", "properties": { "Name": "平泉收费站", "Comment": null, "Lat": 40.9296, "Lng": 118.65, "LB": "收费站", "lx": null }, "geometry": { "type": "Point", "coordinates": [ 118.650037049770049, 40.929596439624049 ] } },
{ "type": "Feature", "properties": { "Name": "杨树岭收费站", "Comment": null, "Lat": 40.9864, "Lng": 118.868, "LB": "收费站", "lx": "承德市省级美丽农村路" }, "geometry": { "type": "Point", "coordinates": [ 118.868454690031967, 40.986442239917494 ] } },
{ "type": "Feature", "properties": { "Name": "宽城收费站", "Comment": null, "Lat": 40.6468, "Lng": 118.537, "LB": "收费站", "lx": null }, "geometry": { "type": "Point", "coordinates": [ 118.536890750407906, 40.646770369756837 ] } },
{ "type": "Feature", "properties": { "Name": "板城收费站", "Comment": null, "Lat": 40.5808, "Lng": 118.626, "LB": "收费站", "lx": null }, "geometry": { "type": "Point", "coordinates": [ 118.626294140162486, 40.58078022962394 ] } },
{ "type": "Feature", "properties": { "Name": "东川收费站", "Comment": null, "Lat": 40.4943, "Lng": 118.688, "LB": "收费站", "lx": null }, "geometry": { "type": "Point", "coordinates": [ 118.68819951999194, 40.494326539738097 ] } },
{ "type": "Feature", "properties": { "Name": "黄杖子收费站", "Comment": null, "Lat": 40.7804, "Lng": 118.358, "LB": "收费站", "lx": null }, "geometry": { "type": "Point", "coordinates": [ 118.358405830164997, 40.780354580099868 ] } },
{ "type": "Feature", "properties": { "Name": "承德县收费站", "Comment": null, "Lat": 40.7698, "Lng": 118.134, "LB": "收费站", "lx": null }, "geometry": { "type": "Point", "coordinates": [ 118.133904930068525, 40.769764000008649 ] } },
{ "type": "Feature", "properties": { "Name": "上板城收费站", "Comment": null, "Lat": 40.8297, "Lng": 118.048, "LB": "收费站", "lx": null }, "geometry": { "type": "Point", "coordinates": [ 118.048267359650936, 40.829690019678708 ] } },
{ "type": "Feature", "properties": { "Name": "高新区收费站", "Comment": null, "Lat": 40.8798, "Lng": 117.975, "LB": "收费站", "lx": null }, "geometry": { "type": "Point", "coordinates": [ 117.975354189844097, 40.87975941936179 ] } },
{ "type": "Feature", "properties": { "Name": "承德东收费站", "Comment": null, "Lat": 40.9578, "Lng": 117.967, "LB": "收费站", "lx": "承德市省级美丽农村路" }, "geometry": { "type": "Point", "coordinates": [ 117.967318299499993, 40.957847209980798 ] } },
{ "type": "Feature", "properties": { "Name": "双峰寺收费站", "Comment": null, "Lat": 41.0404, "Lng": 117.977, "LB": "收费站", "lx": "红色旅游路路线" }, "geometry": { "type": "Point", "coordinates": [ 117.977317569949946, 41.040374510175582 ] } },
{ "type": "Feature", "properties": { "Name": "双桥收费站", "Comment": null, "Lat": 40.8972, "Lng": 117.968, "LB": "收费站", "lx": "承德市省级美丽农村路" }, "geometry": { "type": "Point", "coordinates": [ 117.967709899392389, 40.897230170136311 ] } },
{ "type": "Feature", "properties": { "Name": "承德收费站", "Comment": null, "Lat": 40.914, "Lng": 117.95, "LB": "收费站", "lx": "承德市省级美丽农村路,红色旅游路路线" }, "geometry": { "type": "Point", "coordinates": [ 117.949642540171112, 40.913970659718245 ] } },
{ "type": "Feature", "properties": { "Name": "滦河收费站", "Comment": null, "Lat": 40.9272, "Lng": 117.775, "LB": "收费站", "lx": null }, "geometry": { "type": "Point", "coordinates": [ 117.775218489741519, 40.927213290161262 ] } },
{ "type": "Feature", "properties": { "Name": "承德西收费站", "Comment": null, "Lat": 40.9314, "Lng": 117.696, "LB": "收费站", "lx": null }, "geometry": { "type": "Point", "coordinates": [ 117.695674899976666, 40.931351320007479 ] } },
{ "type": "Feature", "properties": { "Name": "红石砬收费站", "Comment": null, "Lat": 40.8965, "Lng": 117.652, "LB": "收费站", "lx": "红色旅游路路线" }, "geometry": { "type": "Point", "coordinates": [ 117.651772499601293, 40.896508389550604 ] } },
{ "type": "Feature", "properties": { "Name": "西地收费站", "Comment": null, "Lat": 40.9812, "Lng": 117.767, "LB": "收费站", "lx": "承德市省级美丽农村路" }, "geometry": { "type": "Point", "coordinates": [ 117.766592500243746, 40.981210200090686 ] } },
{ "type": "Feature", "properties": { "Name": "双滦北收费站", "Comment": null, "Lat": 41.0223, "Lng": 117.808, "LB": "收费站", "lx": "红色旅游路路线,旅游环线" }, "geometry": { "type": "Point", "coordinates": [ 117.808338400097114, 41.022302159716958 ] } },
{ "type": "Feature", "properties": { "Name": "避暑山庄收费站", "Comment": null, "Lat": 41.0294, "Lng": 117.873, "LB": "收费站", "lx": "承德市省级美丽农村路,红色旅游路路线,旅游环线" }, "geometry": { "type": "Point", "coordinates": [ 117.873322959686902, 41.02941677016787 ] } },
{ "type": "Feature", "properties": { "Name": "红旗收费站", "Comment": null, "Lat": 41.1128, "Lng": 117.641, "LB": "收费站", "lx": "旅游环线" }, "geometry": { "type": "Point", "coordinates": [ 117.640914919787747, 41.112840619798817 ] } },
{ "type": "Feature", "properties": { "Name": "隆化收费站", "Comment": null, "Lat": 41.1865, "Lng": 117.641, "LB": "收费站", "lx": "旅游环线" }, "geometry": { "type": "Point", "coordinates": [ 117.640904189976482, 41.186518709770667 ] } },
{ "type": "Feature", "properties": { "Name": "凤山收费站", "Comment": null, "Lat": 41.2474, "Lng": 117.223, "LB": "收费站", "lx": "旅游环线" }, "geometry": { "type": "Point", "coordinates": [ 117.222898009735445, 41.247434400077566 ] } },
{ "type": "Feature", "properties": { "Name": "西官营收费站", "Comment": null, "Lat": 41.3238, "Lng": 117.017, "LB": "收费站", "lx": "旅游环线" }, "geometry": { "type": "Point", "coordinates": [ 117.017301319500348, 41.323757059840489 ] } },
{ "type": "Feature", "properties": { "Name": "南关收费站", "Comment": null, "Lat": 41.3229, "Lng": 116.765, "LB": "收费站", "lx": "旅游环线" }, "geometry": { "type": "Point", "coordinates": [ 116.764798159607494, 41.322862690360921 ] } },
{ "type": "Feature", "properties": { "Name": "丰宁收费站", "Comment": null, "Lat": 41.3635, "Lng": 116.625, "LB": "收费站", "lx": "旅游环线" }, "geometry": { "type": "Point", "coordinates": [ 116.6250014298721, 41.363459149620098 ] } },
{ "type": "Feature", "properties": { "Name": "大滩收费站", "Comment": null, "Lat": 41.559, "Lng": 116.013, "LB": "收费站", "lx": "旅游环线" }, "geometry": { "type": "Point", "coordinates": [ 116.013425589719304, 41.559029459342128 ] } },
{ "type": "Feature", "properties": { "Name": "滦平收费站", "Comment": null, "Lat": 40.8268, "Lng": 117.376, "LB": "收费站", "lx": "红色旅游路路线" }, "geometry": { "type": "Point", "coordinates": [ 117.375966310097169, 40.826840530366212 ] } },
{ "type": "Feature", "properties": { "Name": "偏桥收费站", "Comment": null, "Lat": 40.7279, "Lng": 117.314, "LB": "收费站", "lx": "红色旅游路路线" }, "geometry": { "type": "Point", "coordinates": [ 117.314393520244835, 40.72790513991032 ] } },
{ "type": "Feature", "properties": { "Name": "安匠收费站", "Comment": null, "Lat": 40.7733, "Lng": 117.732, "LB": "收费站", "lx": null }, "geometry": { "type": "Point", "coordinates": [ 117.731868620240675, 40.773282190121051 ] } },
{ "type": "Feature", "properties": { "Name": "李家营收费站", "Comment": null, "Lat": 40.579, "Lng": 117.703, "LB": "收费站", "lx": null }, "geometry": { "type": "Point", "coordinates": [ 117.703104620282033, 40.579007920379297 ] } },
{ "type": "Feature", "properties": { "Name": "白马川收费站", "Comment": null, "Lat": 40.4923, "Lng": 117.823, "LB": "收费站", "lx": "承德市省级美丽农村路" }, "geometry": { "type": "Point", "coordinates": [ 117.822634580021941, 40.492290849643041 ] } },
{ "type": "Feature", "properties": { "Name": "半壁山收费站", "Comment": null, "Lat": 40.3698, "Lng": 117.961, "LB": "收费站", "lx": null }, "geometry": { "type": "Point", "coordinates": [ 117.960526939566648, 40.36983609945645 ] } },
{ "type": "Feature", "properties": { "Name": "围场北收费站", "Comment": null, "Lat": 41.9772, "Lng": 117.738, "LB": "收费站", "lx": "红色旅游路路线,旅游环线" }, "geometry": { "type": "Point", "coordinates": [ 117.738139629740203, 41.977183179660074 ] } },
{ "type": "Feature", "properties": { "Name": "围场南收费站", "Comment": null, "Lat": 41.8554, "Lng": 117.802, "LB": "收费站", "lx": "红色旅游路路线,旅游环线" }, "geometry": { "type": "Point", "coordinates": [ 117.802169319758377, 41.855410030148846 ] } },
{ "type": "Feature", "properties": { "Name": "蓝旗卡伦收费站", "Comment": null, "Lat": 41.771, "Lng": 117.988, "LB": "收费站", "lx": "承德市省级美丽农村路,旅游环线" }, "geometry": { "type": "Point", "coordinates": [ 117.987767460100258, 41.770951599536716 ] } },
{ "type": "Feature", "properties": { "Name": "头沟收费站", "Comment": null, "Lat": 41.1493, "Lng": 118.054, "LB": "收费站", "lx": "旅游环线" }, "geometry": { "type": "Point", "coordinates": [ 118.05405020994931, 41.149261839762175 ] } },
{ "type": "Feature", "properties": { "Name": "两家收费站", "Comment": null, "Lat": 41.301, "Lng": 118.04, "LB": "收费站", "lx": "旅游环线" }, "geometry": { "type": "Point", "coordinates": [ 118.040011530208062, 41.300971189868562 ] } },
{ "type": "Feature", "properties": { "Name": "七家收费站", "Comment": null, "Lat": 41.464, "Lng": 118.106, "LB": "收费站", "lx": "承德市省级美丽农村路,旅游环线" }, "geometry": { "type": "Point", "coordinates": [ 118.105602259836473, 41.464043609824785 ] } },
{ "type": "Feature", "properties": { "Name": "机场收费站", "Comment": null, "Lat": 41.0981, "Lng": 118.059, "LB": "收费站", "lx": "旅游环线" }, "geometry": { "type": "Point", "coordinates": [ 118.059436079711418, 41.098143579662519 ] } },
{ "type": "Feature", "properties": { "Name": "六沟收费站", "Comment": null, "Lat": 40.9873, "Lng": 118.266, "LB": "收费站", "lx": null }, "geometry": { "type": "Point", "coordinates": [ 118.266218300334344, 40.987292610065936 ] } },
{ "type": "Feature", "properties": { "Name": "平泉收费站", "Comment": null, "Lat": 40.9296, "Lng": 118.65, "LB": "收费站", "lx": null }, "geometry": { "type": "Point", "coordinates": [ 118.650037049770049, 40.929596439624049 ] } },
{ "type": "Feature", "properties": { "Name": "杨树岭收费站", "Comment": null, "Lat": 40.9864, "Lng": 118.868, "LB": "收费站", "lx": "承德市省级美丽农村路" }, "geometry": { "type": "Point", "coordinates": [ 118.868454690031967, 40.986442239917494 ] } },
{ "type": "Feature", "properties": { "Name": "宽城收费站", "Comment": null, "Lat": 40.6468, "Lng": 118.537, "LB": "收费站", "lx": null }, "geometry": { "type": "Point", "coordinates": [ 118.536890750407906, 40.646770369756837 ] } },
{ "type": "Feature", "properties": { "Name": "板城收费站", "Comment": null, "Lat": 40.5808, "Lng": 118.626, "LB": "收费站", "lx": null }, "geometry": { "type": "Point", "coordinates": [ 118.626294140162486, 40.58078022962394 ] } },
{ "type": "Feature", "properties": { "Name": "东川收费站", "Comment": null, "Lat": 40.4943, "Lng": 118.688, "LB": "收费站", "lx": null }, "geometry": { "type": "Point", "coordinates": [ 118.68819951999194, 40.494326539738097 ] } },
{ "type": "Feature", "properties": { "Name": "黄杖子收费站", "Comment": null, "Lat": 40.7804, "Lng": 118.358, "LB": "收费站", "lx": null }, "geometry": { "type": "Point", "coordinates": [ 118.358405830164997, 40.780354580099868 ] } },
{ "type": "Feature", "properties": { "Name": "承德县收费站", "Comment": null, "Lat": 40.7698, "Lng": 118.134, "LB": "收费站", "lx": null }, "geometry": { "type": "Point", "coordinates": [ 118.133904930068525, 40.769764000008649 ] } },
{ "type": "Feature", "properties": { "Name": "上板城收费站", "Comment": null, "Lat": 40.8297, "Lng": 118.048, "LB": "收费站", "lx": null }, "geometry": { "type": "Point", "coordinates": [ 118.048267359650936, 40.829690019678708 ] } },
{ "type": "Feature", "properties": { "Name": "高新区收费站", "Comment": null, "Lat": 40.8798, "Lng": 117.975, "LB": "收费站", "lx": null }, "geometry": { "type": "Point", "coordinates": [ 117.975354189844097, 40.87975941936179 ] } },
{ "type": "Feature", "properties": { "Name": "承德东收费站", "Comment": null, "Lat": 40.9578, "Lng": 117.967, "LB": "收费站", "lx": "承德市省级美丽农村路" }, "geometry": { "type": "Point", "coordinates": [ 117.967318299499993, 40.957847209980798 ] } },
{ "type": "Feature", "properties": { "Name": "双峰寺收费站", "Comment": null, "Lat": 41.0404, "Lng": 117.977, "LB": "收费站", "lx": "红色旅游路路线" }, "geometry": { "type": "Point", "coordinates": [ 117.977317569949946, 41.040374510175582 ] } },
{ "type": "Feature", "properties": { "Name": "双桥收费站", "Comment": null, "Lat": 40.8972, "Lng": 117.968, "LB": "收费站", "lx": "承德市省级美丽农村路" }, "geometry": { "type": "Point", "coordinates": [ 117.967709899392389, 40.897230170136311 ] } },
{ "type": "Feature", "properties": { "Name": "承德收费站", "Comment": null, "Lat": 40.914, "Lng": 117.95, "LB": "收费站", "lx": "承德市省级美丽农村路,红色旅游路路线" }, "geometry": { "type": "Point", "coordinates": [ 117.949642540171112, 40.913970659718245 ] } },
{ "type": "Feature", "properties": { "Name": "滦河收费站", "Comment": null, "Lat": 40.9272, "Lng": 117.775, "LB": "收费站", "lx": null }, "geometry": { "type": "Point", "coordinates": [ 117.775218489741519, 40.927213290161262 ] } },
{ "type": "Feature", "properties": { "Name": "承德西收费站", "Comment": null, "Lat": 40.9314, "Lng": 117.696, "LB": "收费站", "lx": null }, "geometry": { "type": "Point", "coordinates": [ 117.695674899976666, 40.931351320007479 ] } },
{ "type": "Feature", "properties": { "Name": "红石砬收费站", "Comment": null, "Lat": 40.8965, "Lng": 117.652, "LB": "收费站", "lx": "红色旅游路路线" }, "geometry": { "type": "Point", "coordinates": [ 117.651772499601293, 40.896508389550604 ] } },
{ "type": "Feature", "properties": { "Name": "西地收费站", "Comment": null, "Lat": 40.9812, "Lng": 117.767, "LB": "收费站", "lx": "承德市省级美丽农村路" }, "geometry": { "type": "Point", "coordinates": [ 117.766592500243746, 40.981210200090686 ] } },
{ "type": "Feature", "properties": { "Name": "双滦北收费站", "Comment": null, "Lat": 41.0223, "Lng": 117.808, "LB": "收费站", "lx": "红色旅游路路线,旅游环线" }, "geometry": { "type": "Point", "coordinates": [ 117.808338400097114, 41.022302159716958 ] } },
{ "type": "Feature", "properties": { "Name": "避暑山庄收费站", "Comment": null, "Lat": 41.0294, "Lng": 117.873, "LB": "收费站", "lx": "承德市省级美丽农村路,红色旅游路路线,旅游环线" }, "geometry": { "type": "Point", "coordinates": [ 117.873322959686902, 41.02941677016787 ] } },
{ "type": "Feature", "properties": { "Name": "红旗收费站", "Comment": null, "Lat": 41.1128, "Lng": 117.641, "LB": "收费站", "lx": "旅游环线" }, "geometry": { "type": "Point", "coordinates": [ 117.640914919787747, 41.112840619798817 ] } },
{ "type": "Feature", "properties": { "Name": "隆化收费站", "Comment": null, "Lat": 41.1865, "Lng": 117.641, "LB": "收费站", "lx": "旅游环线" }, "geometry": { "type": "Point", "coordinates": [ 117.640904189976482, 41.186518709770667 ] } },
{ "type": "Feature", "properties": { "Name": "凤山收费站", "Comment": null, "Lat": 41.2474, "Lng": 117.223, "LB": "收费站", "lx": "旅游环线" }, "geometry": { "type": "Point", "coordinates": [ 117.222898009735445, 41.247434400077566 ] } },
{ "type": "Feature", "properties": { "Name": "西官营收费站", "Comment": null, "Lat": 41.3238, "Lng": 117.017, "LB": "收费站", "lx": "旅游环线" }, "geometry": { "type": "Point", "coordinates": [ 117.017301319500348, 41.323757059840489 ] } },
{ "type": "Feature", "properties": { "Name": "南关收费站", "Comment": null, "Lat": 41.3229, "Lng": 116.765, "LB": "收费站", "lx": "旅游环线" }, "geometry": { "type": "Point", "coordinates": [ 116.764798159607494, 41.322862690360921 ] } },
{ "type": "Feature", "properties": { "Name": "丰宁收费站", "Comment": null, "Lat": 41.3635, "Lng": 116.625, "LB": "收费站", "lx": "旅游环线" }, "geometry": { "type": "Point", "coordinates": [ 116.6250014298721, 41.363459149620098 ] } },
{ "type": "Feature", "properties": { "Name": "大滩收费站", "Comment": null, "Lat": 41.559, "Lng": 116.013, "LB": "收费站", "lx": "旅游环线" }, "geometry": { "type": "Point", "coordinates": [ 116.013425589719304, 41.559029459342128 ] } },
{ "type": "Feature", "properties": { "Name": "滦平收费站", "Comment": null, "Lat": 40.8268, "Lng": 117.376, "LB": "收费站", "lx": "红色旅游路路线" }, "geometry": { "type": "Point", "coordinates": [ 117.375966310097169, 40.826840530366212 ] } },
{ "type": "Feature", "properties": { "Name": "偏桥收费站", "Comment": null, "Lat": 40.7279, "Lng": 117.314, "LB": "收费站", "lx": "红色旅游路路线" }, "geometry": { "type": "Point", "coordinates": [ 117.314393520244835, 40.72790513991032 ] } },
{ "type": "Feature", "properties": { "Name": "安匠收费站", "Comment": null, "Lat": 40.7733, "Lng": 117.732, "LB": "收费站", "lx": null }, "geometry": { "type": "Point", "coordinates": [ 117.731868620240675, 40.773282190121051 ] } },
{ "type": "Feature", "properties": { "Name": "李家营收费站", "Comment": null, "Lat": 40.579, "Lng": 117.703, "LB": "收费站", "lx": null }, "geometry": { "type": "Point", "coordinates": [ 117.703104620282033, 40.579007920379297 ] } },
{ "type": "Feature", "properties": { "Name": "白马川收费站", "Comment": null, "Lat": 40.4923, "Lng": 117.823, "LB": "收费站", "lx": "承德市省级美丽农村路" }, "geometry": { "type": "Point", "coordinates": [ 117.822634580021941, 40.492290849643041 ] } },
{ "type": "Feature", "properties": { "Name": "半壁山收费站", "Comment": null, "Lat": 40.3698, "Lng": 117.961, "LB": "收费站", "lx": null }, "geometry": { "type": "Point", "coordinates": [ 117.960526939566648, 40.36983609945645 ] } }
]
}
