{
"type": "FeatureCollection",
"name": "星级酒店",
"crs": { "type": "name", "properties": { "name": "urn:ogc:def:crs:OGC:1.3:CRS84" } },
"features": [
{ "type": "Feature", "properties": { "Name": "伯斯特君澜度假酒店", "Comment": "高档", "Lat": 42.4058, "Lng": 117.26, "LB": "星级酒店", "lx": "国家一号风景大道" }, "geometry": { "type": "Point", "coordinates": [ 117.260478179724259, 42.405842059763302 ] } },
{ "type": "Feature", "properties": { "Name": "中国马镇梦马酒店", "Comment": "高档", "Lat": 41.5958, "Lng": 116.003, "LB": "星级酒店", "lx": null }, "geometry": { "type": "Point", "coordinates": [ 116.003090719261309, 41.595803759436023 ] } },
{ "type": "Feature", "properties": { "Name": "滦平大酒店", "Comment": "高档", "Lat": 40.941, "Lng": 117.327, "LB": "星级酒店", "lx": null }, "geometry": { "type": "Point", "coordinates": [ 117.327428099727058, 40.941032389633108 ] } },
{ "type": "Feature", "properties": { "Name": "金山岭长城酒店", "Comment": "高档", "Lat": 40.685, "Lng": 117.237, "LB": "星级酒店", "lx": null }, "geometry": { "type": "Point", "coordinates": [ 117.237150690352109, 40.685020819755096 ] } },
{ "type": "Feature", "properties": { "Name": "平泉润华商务酒店", "Comment": "高档", "Lat": 41.0128, "Lng": 118.699, "LB": "星级酒店", "lx": null }, "geometry": { "type": "Point", "coordinates": [ 118.698697190223243, 41.012766419634602 ] } },
{ "type": "Feature", "properties": { "Name": "亮达国际酒店", "Comment": "高档", "Lat": 41.0096, "Lng": 118.702, "LB": "星级酒店", "lx": null }, "geometry": { "type": "Point", "coordinates": [ 118.701923730196086, 41.009642860129929 ] } },
{ "type": "Feature", "properties": { "Name": "阳光假日酒店", "Comment": "高档", "Lat": 41.3196, "Lng": 117.725, "LB": "星级酒店", "lx": null }, "geometry": { "type": "Point", "coordinates": [ 117.725175420409414, 41.319619590271941 ] } },
{ "type": "Feature", "properties": { "Name": "宽城兆丰国际酒店", "Comment": "高档", "Lat": 40.6121, "Lng": 118.479, "LB": "星级酒店", "lx": null }, "geometry": { "type": "Point", "coordinates": [ 118.47890390019495, 40.612109159909835 ] } },
{ "type": "Feature", "properties": { "Name": "阿尔卡迪亚国际度假酒店", "Comment": "高档", "Lat": 40.2893, "Lng": 117.43, "LB": "星级酒店", "lx": null }, "geometry": { "type": "Point", "coordinates": [ 117.429896719657904, 40.289296110327257 ] } },
{ "type": "Feature", "properties": { "Name": "长承假日酒店", "Comment": "高档", "Lat": 40.9865, "Lng": 117.947, "LB": "星级酒店", "lx": null }, "geometry": { "type": "Point", "coordinates": [ 117.947299059803868, 40.986515460020541 ] } },
{ "type": "Feature", "properties": { "Name": "天宝假日酒店", "Comment": "高档", "Lat": 40.9675, "Lng": 117.931, "LB": "星级酒店", "lx": null }, "geometry": { "type": "Point", "coordinates": [ 117.930944450426068, 40.967518619988368 ] } },
{ "type": "Feature", "properties": { "Name": "行宫大酒店", "Comment": "高档", "Lat": 40.9619, "Lng": 117.801, "LB": "星级酒店", "lx": null }, "geometry": { "type": "Point", "coordinates": [ 117.801024839824549, 40.961910509762276 ] } },
{ "type": "Feature", "properties": { "Name": "路源商务宾馆", "Comment": "三星", "Lat": 40.7708, "Lng": 118.171, "LB": "星级酒店", "lx": null }, "geometry": { "type": "Point", "coordinates": [ 118.171050710422037, 40.770778699677294 ] } },
{ "type": "Feature", "properties": { "Name": "不倒翁酒店", "Comment": "三星", "Lat": 40.9116, "Lng": 117.315, "LB": "星级酒店", "lx": null }, "geometry": { "type": "Point", "coordinates": [ 117.314938839455976, 40.911572979909124 ] } },
{ "type": "Feature", "properties": { "Name": "围场太阳湖度假村", "Comment": "三星", "Lat": 42.3942, "Lng": 117.151, "LB": "星级酒店", "lx": null }, "geometry": { "type": "Point", "coordinates": [ 117.150759880164401, 42.394169300273063 ] } },
{ "type": "Feature", "properties": { "Name": "广兴宾馆", "Comment": "三星", "Lat": 40.4063, "Lng": 117.478, "LB": "星级酒店", "lx": null }, "geometry": { "type": "Point", "coordinates": [ 117.478275720348279, 40.406251159963119 ] } },
{ "type": "Feature", "properties": { "Name": "滦平北山大酒店", "Comment": "三星", "Lat": 40.9407, "Lng": 117.327, "LB": "星级酒店", "lx": null }, "geometry": { "type": "Point", "coordinates": [ 117.327251659936223, 40.94070001009743 ] } },
{ "type": "Feature", "properties": { "Name": "宽城京城宾馆", "Comment": "三星", "Lat": 40.6096, "Lng": 118.478, "LB": "星级酒店", "lx": null }, "geometry": { "type": "Point", "coordinates": [ 118.477720590233162, 40.609562410277078 ] } },
{ "type": "Feature", "properties": { "Name": "龙骧大酒店", "Comment": "三星", "Lat": 41.3101, "Lng": 117.726, "LB": "星级酒店", "lx": null }, "geometry": { "type": "Point", "coordinates": [ 117.726487599623056, 41.310049569831847 ] } },
{ "type": "Feature", "properties": { "Name": "白楼宾馆", "Comment": "三星", "Lat": 40.92, "Lng": 117.946, "LB": "星级酒店", "lx": "承德市省级美丽农村路,红色旅游路路线" }, "geometry": { "type": "Point", "coordinates": [ 117.945887830159336, 40.920047689949001 ] } },
{ "type": "Feature", "properties": { "Name": "承钢宾馆", "Comment": "三星", "Lat": 40.951, "Lng": 117.731, "LB": "星级酒店", "lx": null }, "geometry": { "type": "Point", "coordinates": [ 117.731429789753065, 40.951049599759301 ] } },
{ "type": "Feature", "properties": { "Name": "喜莱佳大酒店", "Comment": "四星", "Lat": 40.9871, "Lng": 117.947, "LB": "星级酒店", "lx": null }, "geometry": { "type": "Point", "coordinates": [ 117.947037379571498, 40.987142110320178 ] } },
{ "type": "Feature", "properties": { "Name": "丰宁宾馆", "Comment": "四星", "Lat": 41.2024, "Lng": 116.644, "LB": "星级酒店", "lx": null }, "geometry": { "type": "Point", "coordinates": [ 116.643501120180645, 41.20241602018325 ] } },
{ "type": "Feature", "properties": { "Name": "山庄宾馆", "Comment": "四星", "Lat": 40.9789, "Lng": 117.936, "LB": "星级酒店", "lx": null }, "geometry": { "type": "Point", "coordinates": [ 117.936266759703244, 40.978901349917408 ] } },
{ "type": "Feature", "properties": { "Name": "紫御国际假日酒店", "Comment": "四星", "Lat": 40.9743, "Lng": 117.937, "LB": "星级酒店", "lx": null }, "geometry": { "type": "Point", "coordinates": [ 117.937428600149815, 40.974325430274462 ] } },
{ "type": "Feature", "properties": { "Name": "平泉泽州大酒店", "Comment": "四星", "Lat": 40.9995, "Lng": 118.686, "LB": "星级酒店", "lx": null }, "geometry": { "type": "Point", "coordinates": [ 118.686076039877435, 40.99953582032191 ] } },
{ "type": "Feature", "properties": { "Name": "平泉客官酒店", "Comment": "四星", "Lat": 40.9973, "Lng": 118.676, "LB": "星级酒店", "lx": null }, "geometry": { "type": "Point", "coordinates": [ 118.67623658974685, 40.997344220159675 ] } },
{ "type": "Feature", "properties": { "Name": "东杉坝上草原假日酒店", "Comment": "四星", "Lat": 41.6084, "Lng": 115.997, "LB": "星级酒店", "lx": null }, "geometry": { "type": "Point", "coordinates": [ 115.997272539995834, 41.608427169778111 ] } },
{ "type": "Feature", "properties": { "Name": "宽城天宝酒店", "Comment": "四星", "Lat": 40.6053, "Lng": 118.484, "LB": "星级酒店", "lx": null }, "geometry": { "type": "Point", "coordinates": [ 118.483885670387394, 40.605344490056211 ] } },
{ "type": "Feature", "properties": { "Name": "京城大酒店", "Comment": "四星", "Lat": 40.9585, "Lng": 117.942, "LB": "星级酒店", "lx": "红色旅游路路线" }, "geometry": { "type": "Point", "coordinates": [ 117.941853309582598, 40.958484519944705 ] } },
{ "type": "Feature", "properties": { "Name": "承德文冠饭店", "Comment": "四星", "Lat": 40.9544, "Lng": 117.94, "LB": "星级酒店", "lx": "红色旅游路路线" }, "geometry": { "type": "Point", "coordinates": [ 117.940338520306568, 40.954365650154671 ] } },
{ "type": "Feature", "properties": { "Name": "承德宾馆", "Comment": "四星", "Lat": 40.97, "Lng": 117.932, "LB": "星级酒店", "lx": null }, "geometry": { "type": "Point", "coordinates": [ 117.931500440093259, 40.970005769750514 ] } },
{ "type": "Feature", "properties": { "Name": "盛华大酒店", "Comment": "四星", "Lat": 40.9688, "Lng": 117.936, "LB": "星级酒店", "lx": null }, "geometry": { "type": "Point", "coordinates": [ 117.935857720157742, 40.968756609629907 ] } },
{ "type": "Feature", "properties": { "Name": "云山饭店", "Comment": "四星", "Lat": 40.9661, "Lng": 117.936, "LB": "星级酒店", "lx": null }, "geometry": { "type": "Point", "coordinates": [ 117.936189579885308, 40.966119349528412 ] } },
{ "type": "Feature", "properties": { "Name": "滦平庄普酒店", "Comment": "五星", "Lat": 40.9615, "Lng": 117.364, "LB": "星级酒店", "lx": null }, "geometry": { "type": "Point", "coordinates": [ 117.363611899569605, 40.961465209551818 ] } },
{ "type": "Feature", "properties": { "Name": "嘉和国际饭店", "Comment": "五星", "Lat": 40.9425, "Lng": 117.958, "LB": "星级酒店", "lx": "承德市省级美丽农村路,红色旅游路路线" }, "geometry": { "type": "Point", "coordinates": [ 117.958205720117917, 40.942465339703745 ] } }
]
}
