{
"type": "FeatureCollection",
"name": "景区",
"crs": { "type": "name", "properties": { "name": "urn:ogc:def:crs:OGC:1.3:CRS84" } },
"features": [
{ "type": "Feature", "properties": { "Name": "南山公园", "Comment": "AAA级景区", "Lat": 40.9254, "Lng": 117.326, "LB": "景区", "lx": null }, "geometry": { "type": "Point", "coordinates": [ 117.326439359888582, 40.925408439847672 ] } },
{ "type": "Feature", "properties": { "Name": "板城酒博园景区", "Comment": "AAA级景区", "Lat": 40.7888, "Lng": 118.196, "LB": "景区", "lx": null }, "geometry": { "type": "Point", "coordinates": [ 118.196456020429082, 40.788759460480776 ] } },
{ "type": "Feature", "properties": { "Name": "小滦河湿地公园景区", "Comment": "AAA级景区", "Lat": 42.1534, "Lng": 116.982, "LB": "景区", "lx": "国家一号风景大道" }, "geometry": { "type": "Point", "coordinates": [ 116.981998149295237, 42.153434069726586 ] } },
{ "type": "Feature", "properties": { "Name": "热河中药花海小镇景区", "Comment": "AAA级景区", "Lat": 41.0203, "Lng": 117.469, "LB": "景区", "lx": null }, "geometry": { "type": "Point", "coordinates": [ 117.469169130451064, 41.020256450274985 ] } },
{ "type": "Feature", "properties": { "Name": "山戎文化森林公园景区", "Comment": "AAA级景区", "Lat": 40.9412, "Lng": 117.322, "LB": "景区", "lx": null }, "geometry": { "type": "Point", "coordinates": [ 117.322332439390607, 40.941229440086659 ] } },
{ "type": "Feature", "properties": { "Name": "天马飞行小镇", "Comment": "AAA级景区", "Lat": 41.6214, "Lng": 116.025, "LB": "景区", "lx": null }, "geometry": { "type": "Point", "coordinates": [ 116.024966739723368, 41.621377099673452 ] } },
{ "type": "Feature", "properties": { "Name": "天子山风景区", "Comment": "AAA级景区", "Lat": 40.3579, "Lng": 117.648, "LB": "景区", "lx": "承德市省级美丽农村路" }, "geometry": { "type": "Point", "coordinates": [ 117.648163260326214, 40.3579272301576 ] } },
{ "type": "Feature", "properties": { "Name": "青松岭文化旅游度假区", "Comment": "AAA级景区", "Lat": 40.2895, "Lng": 117.427, "LB": "景区", "lx": null }, "geometry": { "type": "Point", "coordinates": [ 117.427105259999848, 40.289499269875478 ] } },
{ "type": "Feature", "properties": { "Name": "九龙潭景区", "Comment": "AAA级景区", "Lat": 40.3417, "Lng": 117.502, "LB": "景区", "lx": null }, "geometry": { "type": "Point", "coordinates": [ 117.502160120293411, 40.341726910268733 ] } },
{ "type": "Feature", "properties": { "Name": "联玉生态园景区", "Comment": "AAA级景区", "Lat": 41.8497, "Lng": 117.875, "LB": "景区", "lx": "旅游环线" }, "geometry": { "type": "Point", "coordinates": [ 117.875456729844245, 41.849650010039966 ] } },
{ "type": "Feature", "properties": { "Name": "九龙醉酒文化产业园景区", "Comment": "AAA级景区", "Lat": 41.2267, "Lng": 116.63, "LB": "景区", "lx": null }, "geometry": { "type": "Point", "coordinates": [ 116.6302673498584, 41.226716999589939 ] } },
{ "type": "Feature", "properties": { "Name": "茅荆坝森林公园景区", "Comment": "AAA级景区", "Lat": 41.6481, "Lng": 118.182, "LB": "景区", "lx": null }, "geometry": { "type": "Point", "coordinates": [ 118.182069009876955, 41.648130690379105 ] } },
{ "type": "Feature", "properties": { "Name": "白草洼森林公园景区", "Comment": "AAA级景区", "Lat": 40.8352, "Lng": 117.591, "LB": "景区", "lx": null }, "geometry": { "type": "Point", "coordinates": [ 117.59073779031678, 40.835244929609871 ] } },
{ "type": "Feature", "properties": { "Name": "大清猎苑景区", "Comment": "AAA级景区", "Lat": 42.0427, "Lng": 117.666, "LB": "景区", "lx": null }, "geometry": { "type": "Point", "coordinates": [ 117.665669969593523, 42.042710560144315 ] } },
{ "type": "Feature", "properties": { "Name": "蟠龙湖景区", "Comment": "AAA级景区", "Lat": 40.4353, "Lng": 118.329, "LB": "景区", "lx": null }, "geometry": { "type": "Point", "coordinates": [ 118.328723029744083, 40.435331160105022 ] } },
{ "type": "Feature", "properties": { "Name": "平泉泽州园景区", "Comment": "AAA级景区", "Lat": 41.0069, "Lng": 118.676, "LB": "景区", "lx": null }, "geometry": { "type": "Point", "coordinates": [ 118.676087309481773, 41.006870840217175 ] } },
{ "type": "Feature", "properties": { "Name": "辽河源森林公园景区", "Comment": "AAA级景区", "Lat": 41.3186, "Lng": 118.516, "LB": "景区", "lx": null }, "geometry": { "type": "Point", "coordinates": [ 118.515507860599314, 41.318590149815634 ] } },
{ "type": "Feature", "properties": { "Name": "魁星楼景区", "Comment": "AAA级景区", "Lat": 40.956, "Lng": 117.945, "LB": "景区", "lx": "红色旅游路路线" }, "geometry": { "type": "Point", "coordinates": [ 117.945382250190733, 40.956014329597679 ] } },
{ "type": "Feature", "properties": { "Name": "白云古洞景区", "Comment": "AAA级景区", "Lat": 41.0394, "Lng": 116.914, "LB": "景区", "lx": null }, "geometry": { "type": "Point", "coordinates": [ 116.913787629795365, 41.039379250252239 ] } },
{ "type": "Feature", "properties": { "Name": "磬锤峰森林公园景区", "Comment": "AAAA级景区", "Lat": 40.9942, "Lng": 117.97, "LB": "景区", "lx": null }, "geometry": { "type": "Point", "coordinates": [ 117.970450929566823, 40.994209289627065 ] } },
{ "type": "Feature", "properties": { "Name": "七彩森林景区", "Comment": "AAAA级景区", "Lat": 41.6026, "Lng": 116.112, "LB": "景区", "lx": null }, "geometry": { "type": "Point", "coordinates": [ 116.111701660203494, 41.602630540067423 ] } },
{ "type": "Feature", "properties": { "Name": "兴隆山景区", "Comment": "AAAA级景区", "Lat": 40.4793, "Lng": 117.826, "LB": "景区", "lx": "承德市省级美丽农村路" }, "geometry": { "type": "Point", "coordinates": [ 117.826189189979232, 40.479266040395487 ] } },
{ "type": "Feature", "properties": { "Name": "山庄老酒文化产业园景区", "Comment": "AAAA级景区", "Lat": 41.0033, "Lng": 118.698, "LB": "景区", "lx": null }, "geometry": { "type": "Point", "coordinates": [ 118.698416009990979, 41.003266459979216 ] } },
{ "type": "Feature", "properties": { "Name": "大汗行宫旅游景区", "Comment": "AAAA级景区", "Lat": 41.6301, "Lng": 115.941, "LB": "景区", "lx": null }, "geometry": { "type": "Point", "coordinates": [ 115.941224899709368, 41.630071450237267 ] } },
{ "type": "Feature", "properties": { "Name": "兴隆溶洞景区", "Comment": "AAAA级景区", "Lat": 40.4864, "Lng": 117.49, "LB": "景区", "lx": "承德市省级美丽农村路" }, "geometry": { "type": "Point", "coordinates": [ 117.490485230309218, 40.486414100230604 ] } },
{ "type": "Feature", "properties": { "Name": "董存瑞纪念馆", "Comment": "AAAA级景区", "Lat": 41.3225, "Lng": 117.724, "LB": "景区", "lx": null }, "geometry": { "type": "Point", "coordinates": [ 117.724032089809157, 41.322512829803316 ] } },
{ "type": "Feature", "properties": { "Name": "双塔山景区", "Comment": "AAAA级景区", "Lat": 40.9584, "Lng": 117.799, "LB": "景区", "lx": null }, "geometry": { "type": "Point", "coordinates": [ 117.799058929925764, 40.958414069753587 ] } },
{ "type": "Feature", "properties": { "Name": "京北第一草原景区", "Comment": "AAAA级景区", "Lat": 41.4648, "Lng": 116.204, "LB": "景区", "lx": null }, "geometry": { "type": "Point", "coordinates": [ 116.204339619977532, 41.464840060220638 ] } },
{ "type": "Feature", "properties": { "Name": "塞罕坝森林公园景区", "Comment": "AAAA级景区", "Lat": 42.3599, "Lng": 117.384, "LB": "景区", "lx": null }, "geometry": { "type": "Point", "coordinates": [ 117.384217040384215, 42.359886630363746 ] } },
{ "type": "Feature", "properties": { "Name": "金山岭长城景区", "Comment": "AAAAA级景区", "Lat": 40.6813, "Lng": 117.249, "LB": "景区", "lx": "承德市省级美丽农村路" }, "geometry": { "type": "Point", "coordinates": [ 117.248771590436604, 40.681258219990923 ] } },
{ "type": "Feature", "properties": { "Name": "隆承国际大马戏旅游景区", "Comment": "AAA级景区", "Lat": 41.0454, "Lng": 117.978, "LB": "景区", "lx": "红色旅游路路线" }, "geometry": { "type": "Point", "coordinates": [ 117.977575660088746, 41.04536526009872 ] } },
{ "type": "Feature", "properties": { "Name": "塞罕坝生态酒庄景区", "Comment": "AAA级景区", "Lat": 40.2834, "Lng": 117.428, "LB": "景区", "lx": null }, "geometry": { "type": "Point", "coordinates": [ 117.428183190102231, 40.283444399839254 ] } },
{ "type": "Feature", "properties": { "Name": "避暑山庄及周围寺庙景区", "Comment": "AAAAA级景区", "Lat": 40.9807, "Lng": 117.94, "LB": "景区", "lx": null }, "geometry": { "type": "Point", "coordinates": [ 117.940149310142601, 40.980702539990261 ] } },
{ "type": "Feature", "properties": { "Name": "钓鱼台湿地公园景区", "Comment": "AAA级景区", "Lat": 42.122, "Lng": 117.596, "LB": "景区", "lx": null }, "geometry": { "type": "Point", "coordinates": [ 117.596162009868976, 42.121991219619133 ] } },
{ "type": "Feature", "properties": { "Name": "塞罕坝生态科普园", "Comment": "AAA级景区", "Lat": 41.7565, "Lng": 118.005, "LB": "景区", "lx": "旅游环线" }, "geometry": { "type": "Point", "coordinates": [ 118.004949739838708, 41.756507849857428 ] } },
{ "type": "Feature", "properties": { "Name": "诗上庄景区", "Comment": "AAA级景区", "Lat": 40.4511, "Lng": 117.915, "LB": "景区", "lx": "承德市省级美丽农村路" }, "geometry": { "type": "Point", "coordinates": [ 117.915358300045568, 40.451133660390155 ] } },
{ "type": "Feature", "properties": { "Name": "九龙松景区", "Comment": "AA级景区", "Lat": 40.3764, "Lng": 117.454, "LB": "景区", "lx": null }, "geometry": { "type": "Point", "coordinates": [ 117.454429970566707, 40.376446260386672 ] } },
{ "type": "Feature", "properties": { "Name": "关帝庙景区", "Comment": "AA级景区", "Lat": 40.9798, "Lng": 117.933, "LB": "景区", "lx": null }, "geometry": { "type": "Point", "coordinates": [ 117.933200960056297, 40.979778109771985 ] } },
{ "type": "Feature", "properties": { "Name": "千松坝森林公园景区", "Comment": "AA级景区", "Lat": 41.5365, "Lng": 116.208, "LB": "景区", "lx": null }, "geometry": { "type": "Point", "coordinates": [ 116.207922039670507, 41.536482020329004 ] } },
{ "type": "Feature", "properties": { "Name": "花溪梨园景区", "Comment": "AAA级景区", "Lat": 41.1493, "Lng": 117.499, "LB": "景区", "lx": null }, "geometry": { "type": "Point", "coordinates": [ 117.499122270676366, 41.149263400085886 ] } },
{ "type": "Feature", "properties": { "Name": "朝阳洞景区", "Comment": "AA级景区", "Lat": 40.9877, "Lng": 118.063, "LB": "景区", "lx": null }, "geometry": { "type": "Point", "coordinates": [ 118.063060280107948, 40.987654519740374 ] } },
{ "type": "Feature", "properties": { "Name": "苇子峪景区", "Comment": "AA级景区", "Lat": 40.348, "Lng": 118.006, "LB": "景区", "lx": null }, "geometry": { "type": "Point", "coordinates": [ 118.005646769283089, 40.347982549455139 ] } },
{ "type": "Feature", "properties": { "Name": "非物质文化遗产传承基地景区", "Comment": "AA级景区", "Lat": 41.1571, "Lng": 116.613, "LB": "景区", "lx": null }, "geometry": { "type": "Point", "coordinates": [ 116.612811570097961, 41.157068019873293 ] } },
{ "type": "Feature", "properties": { "Name": "兴隆县六里坪森林公园景区", "Comment": "AA级景区", "Lat": 40.3358, "Lng": 117.575, "LB": "景区", "lx": null }, "geometry": { "type": "Point", "coordinates": [ 117.574926480272893, 40.335805989754704 ] } },
{ "type": "Feature", "properties": { "Name": "神龙山风景区", "Comment": "AA级景区", "Lat": 40.5712, "Lng": 117.864, "LB": "景区", "lx": null }, "geometry": { "type": "Point", "coordinates": [ 117.864003219672895, 40.571209120104868 ] } },
{ "type": "Feature", "properties": { "Name": "喇嘛山冰臼景区", "Comment": "AA级景区", "Lat": 41.3694, "Lng": 116.487, "LB": "景区", "lx": null }, "geometry": { "type": "Point", "coordinates": [ 116.486586020128811, 41.369380440654879 ] } },
{ "type": "Feature", "properties": { "Name": "城隍庙景区", "Comment": "A级景区", "Lat": 40.9854, "Lng": 117.919, "LB": "景区", "lx": null }, "geometry": { "type": "Point", "coordinates": [ 117.919103780315254, 40.985393650196841 ] } },
{ "type": "Feature", "properties": { "Name": "顺鑫生态康养产业园景区", "Comment": "AA级景区", "Lat": 42.0054, "Lng": 117.679, "LB": "景区", "lx": "红色旅游路路线,旅游环线" }, "geometry": { "type": "Point", "coordinates": [ 117.679205729560863, 42.00543054968017 ] } },
{ "type": "Feature", "properties": { "Name": "奇石谷风景区", "Comment": "AA级景区", "Lat": 40.3467, "Lng": 117.573, "LB": "景区", "lx": null }, "geometry": { "type": "Point", "coordinates": [ 117.573356749614391, 40.346704489620549 ] } },
{ "type": "Feature", "properties": { "Name": "红松洼风景区", "Comment": "河北省承德市围场满族蒙古族自治县西北部", "Lat": 42.5204, "Lng": 117.658, "LB": "景区", "lx": null }, "geometry": { "type": "Point", "coordinates": [ 117.658097570046834, 42.520447920135439 ] } },
{ "type": "Feature", "properties": { "Name": "御道口草原森林风景区", "Comment": "河北省承德市围场满族蒙古族自治县御塞七号", "Lat": 42.2852, "Lng": 117.062, "LB": "景区", "lx": null }, "geometry": { "type": "Point", "coordinates": [ 117.062137709887452, 42.285244289992022 ] } },
{ "type": "Feature", "properties": { "Name": "城子古城遗址", "Comment": null, "Lat": 41.9564, "Lng": 117.213, "LB": "景区", "lx": "红色旅游路路线,旅游环线" }, "geometry": { "type": "Point", "coordinates": [ 117.212520540190894, 41.956446360111499 ] } },
{ "type": "Feature", "properties": { "Name": "龙潭寺", "Comment": "河北省承德市围场满族蒙古族自治县围场镇桃李街与锥峰路交叉", "Lat": 41.9288, "Lng": 117.741, "LB": "景区", "lx": "旅游环线" }, "geometry": { "type": "Point", "coordinates": [ 117.74118331955458, 41.928813280108841 ] } },
{ "type": "Feature", "properties": { "Name": "庙宫水库", "Comment": "河北省承德市围场满族蒙古族自治县", "Lat": 41.7255, "Lng": 117.843, "LB": "景区", "lx": "红色旅游路路线" }, "geometry": { "type": "Point", "coordinates": [ 117.842620870356996, 41.725509700112639 ] } },
{ "type": "Feature", "properties": { "Name": "避暑山庄", "Comment": "河北省承德市双桥区山庄东路6号", "Lat": 40.9987, "Lng": 117.931, "LB": "景区", "lx": "红色旅游路路线" }, "geometry": { "type": "Point", "coordinates": [ 117.930570720062747, 40.998718529936241 ] } },
{ "type": "Feature", "properties": { "Name": "凤山戏楼", "Comment": "河北省承德市丰宁满族自治县承丰路(小川小学向南100米)", "Lat": 41.2286, "Lng": 117.195, "LB": "景区", "lx": null }, "geometry": { "type": "Point", "coordinates": [ 117.195079029973272, 41.228627690215774 ] } },
{ "type": "Feature", "properties": { "Name": "同林寺", "Comment": "河北省承德市丰宁满族自治县506县道东50米", "Lat": 41.3858, "Lng": 116.881, "LB": "景区", "lx": "旅游环线" }, "geometry": { "type": "Point", "coordinates": [ 116.880853020250697, 41.385775249728056 ] } },
{ "type": "Feature", "properties": { "Name": "古生物化石博物馆", "Comment": "河北省承德市丰宁满族自治县宁丰路255-4号", "Lat": 41.2077, "Lng": 116.643, "LB": "景区", "lx": null }, "geometry": { "type": "Point", "coordinates": [ 116.642964750123156, 41.207676910261227 ] } },
{ "type": "Feature", "properties": { "Name": "佛珠洞", "Comment": "河北省承德市丰宁满族自治县土城镇半虎线喇嘛山风景区", "Lat": 41.3697, "Lng": 116.488, "LB": "景区", "lx": null }, "geometry": { "type": "Point", "coordinates": [ 116.488146800734285, 41.369671740058834 ] } },
{ "type": "Feature", "properties": { "Name": "京北第一草原旅游景区", "Comment": "河北省承德市丰宁满族自治县大滩镇", "Lat": 41.6277, "Lng": 115.945, "LB": "景区", "lx": null }, "geometry": { "type": "Point", "coordinates": [ 115.944700620237541, 41.627661179919585 ] } },
{ "type": "Feature", "properties": { "Name": "国家一号风景大道", "Comment": "河北省承德市围场满族蒙古族自治县塞罕坝机械林场御克线", "Lat": 42.395, "Lng": 117.244, "LB": "景区", "lx": "国家一号风景大道" }, "geometry": { "type": "Point", "coordinates": [ 117.244189680409477, 42.395022210106958 ] } },
{ "type": "Feature", "properties": { "Name": "五道沟风景区", "Comment": "河北省承德市围场满族蒙古族自治县西龙头乡西北部(靠近河北", "Lat": 41.93, "Lng": 116.891, "LB": "景区", "lx": null }, "geometry": { "type": "Point", "coordinates": [ 116.890748159999703, 41.9299938201587 ] } },
{ "type": "Feature", "properties": { "Name": "阿鲁布拉克沙漠公园", "Comment": null, "Lat": 42.1116, "Lng": 116.942, "LB": "景区", "lx": "国家一号风景大道" }, "geometry": { "type": "Point", "coordinates": [ 116.942381860234718, 42.111563239651844 ] } },
{ "type": "Feature", "properties": { "Name": "双峰寺水库", "Comment": "河北省承德市双桥区", "Lat": 41.0693, "Lng": 117.978, "LB": "景区", "lx": null }, "geometry": { "type": "Point", "coordinates": [ 117.978064840020465, 41.06930774995277 ] } },
{ "type": "Feature", "properties": { "Name": "转山湖风景区", "Comment": "河北省承德市滦平县转山湖希望小学向西2500米", "Lat": 40.8613, "Lng": 117.649, "LB": "景区", "lx": null }, "geometry": { "type": "Point", "coordinates": [ 117.648807319702087, 40.861337649912684 ] } },
{ "type": "Feature", "properties": { "Name": "金山岭国际滑雪旅游度假区", "Comment": "河北省承德市滦平县东营子村", "Lat": 40.8222, "Lng": 117.386, "LB": "景区", "lx": "红色旅游路路线" }, "geometry": { "type": "Point", "coordinates": [ 117.386288869735608, 40.822157850404551 ] } },
{ "type": "Feature", "properties": { "Name": "御龙谷国际旅游区", "Comment": "河北省承德市滦平县健康路与富裕路交叉口东北方向124米左右", "Lat": 40.7398, "Lng": 117.342, "LB": "景区", "lx": "红色旅游路路线" }, "geometry": { "type": "Point", "coordinates": [ 117.342233119662751, 40.739773709689018 ] } },
{ "type": "Feature", "properties": { "Name": "碧霞山风景区", "Comment": "河北省承德市滦平县长山峪镇G335旁", "Lat": 40.8479, "Lng": 117.347, "LB": "景区", "lx": null }, "geometry": { "type": "Point", "coordinates": [ 117.347068049450968, 40.847857389806734 ] } },
{ "type": "Feature", "properties": { "Name": "满族博物馆", "Comment": "河北省承德市丰宁满族自治县宁丰路333号", "Lat": 41.205, "Lng": 116.646, "LB": "景区", "lx": null }, "geometry": { "type": "Point", "coordinates": [ 116.645606559894873, 41.205042599936064 ] } },
{ "type": "Feature", "properties": { "Name": "燕山大峡谷", "Comment": "河北省承德市丰宁满族自治县鑫龙湾农家院对面", "Lat": 41.118, "Lng": 116.492, "LB": "景区", "lx": "承德市省级美丽农村路" }, "geometry": { "type": "Point", "coordinates": [ 116.491865550454804, 41.117995639886942 ] } },
{ "type": "Feature", "properties": { "Name": "九龙松", "Comment": "河北省承德市丰宁满族自治县五道营派出所向东50米", "Lat": 41.2604, "Lng": 116.512, "LB": "景区", "lx": null }, "geometry": { "type": "Point", "coordinates": [ 116.511697320175244, 41.260436960097707 ] } },
{ "type": "Feature", "properties": { "Name": "鱼儿山牧场", "Comment": "河北省承德市丰宁满族自治县鱼儿山镇新兴街(平安堡中学东南", "Lat": 41.7523, "Lng": 116.157, "LB": "景区", "lx": "国家一号风景大道" }, "geometry": { "type": "Point", "coordinates": [ 116.157200949863977, 41.752249620223836 ] } },
{ "type": "Feature", "properties": { "Name": "马镇旅游度假区", "Comment": "河北省承德市丰宁满族自治县大滩镇", "Lat": 41.591, "Lng": 116.012, "LB": "景区", "lx": null }, "geometry": { "type": "Point", "coordinates": [ 116.012044059285927, 41.591035070112468 ] } },
{ "type": "Feature", "properties": { "Name": "鼎盛王朝", "Comment": null, "Lat": 40.9783, "Lng": 117.836, "LB": "景区", "lx": null }, "geometry": { "type": "Point", "coordinates": [ 117.835997340000063, 40.978294320000032 ] } },
{ "type": "Feature", "properties": { "Name": "七家温泉", "Comment": null, "Lat": 41.4812, "Lng": 118.108, "LB": "景区", "lx": "旅游环线" }, "geometry": { "type": "Point", "coordinates": [ 118.108475930000054, 41.481248710000045 ] } },
{ "type": "Feature", "properties": { "Name": "北方牛镇", "Comment": null, "Lat": 42.1143, "Lng": 117.649, "LB": "景区", "lx": null }, "geometry": { "type": "Point", "coordinates": [ 117.649058100000047, 42.114340900000059 ] } },
{ "type": "Feature", "properties": { "Name": "哈里哈田园小镇", "Comment": null, "Lat": 42.1774, "Lng": 117.552, "LB": "景区", "lx": null }, "geometry": { "type": "Point", "coordinates": [ 117.552487850000034, 42.177366600000028 ] } },
{ "type": "Feature", "properties": { "Name": "紫玉蓝莓庄园", "Comment": null, "Lat": 41.9447, "Lng": 117.235, "LB": "景区", "lx": "红色旅游路路线,旅游环线" }, "geometry": { "type": "Point", "coordinates": [ 117.234549520000087, 41.944664970000076 ] } },
{ "type": "Feature", "properties": { "Name": "南大天省级森林公园", "Comment": null, "Lat": 41.8804, "Lng": 117.718, "LB": "景区", "lx": null }, "geometry": { "type": "Point", "coordinates": [ 117.718281890000071, 41.880375560000061 ] } },
{ "type": "Feature", "properties": { "Name": "抽水蓄能电站", "Comment": null, "Lat": 41.6868, "Lng": 116.548, "LB": "景区", "lx": null }, "geometry": { "type": "Point", "coordinates": [ 116.548279520000051, 41.686814490000074 ] } },
{ "type": "Feature", "properties": { "Name": "永太兴疏林草原生态旅游度假区", "Comment": null, "Lat": 41.926, "Lng": 116.642, "LB": "景区", "lx": null }, "geometry": { "type": "Point", "coordinates": [ 116.641706230000068, 41.926020940000058 ] } },
{ "type": "Feature", "properties": { "Name": "金凤鸟发现地", "Comment": null, "Lat": 41.8284, "Lng": 116.668, "LB": "景区", "lx": null }, "geometry": { "type": "Point", "coordinates": [ 116.6683459300001, 41.828418160000069 ] } },
{ "type": "Feature", "properties": { "Name": "云雾山森林公园", "Comment": null, "Lat": 41.1229, "Lng": 116.737, "LB": "景区", "lx": null }, "geometry": { "type": "Point", "coordinates": [ 116.737116900000046, 41.122911410000029 ] } },
{ "type": "Feature", "properties": { "Name": "十曲天路", "Comment": null, "Lat": 41.4577, "Lng": 116.104, "LB": "景区", "lx": null }, "geometry": { "type": "Point", "coordinates": [ 116.103987690000054, 41.457715910000047 ] } },
{ "type": "Feature", "properties": { "Name": "郭小川故居", "Comment": null, "Lat": 41.2261, "Lng": 117.197, "LB": "景区", "lx": null }, "geometry": { "type": "Point", "coordinates": [ 117.197091130000103, 41.226116730000058 ] } }
]
}
