{
"type": "FeatureCollection",
"name": "服务区",
"crs": { "type": "name", "properties": { "name": "urn:ogc:def:crs:OGC:1.3:CRS84" } },
"features": [
{ "type": "Feature", "properties": { "Name": "钓鱼台服务区", "Comment": null, "Lat": 41.795, "Lng": 117.947, "LB": "服务区", "lx": "承德市省级美丽农村路,旅游环线" }, "geometry": { "type": "Point", "coordinates": [ 117.946751119968326, 41.794992249492793 ] } },
{ "type": "Feature", "properties": { "Name": "茅荆坝服务区", "Comment": null, "Lat": 41.4331, "Lng": 118.09, "LB": "服务区", "lx": "旅游环线" }, "geometry": { "type": "Point", "coordinates": [ 118.089680670426674, 41.433090720260566 ] } },
{ "type": "Feature", "properties": { "Name": "三沟服务区", "Comment": null, "Lat": 41.0471, "Lng": 118.18, "LB": "服务区", "lx": null }, "geometry": { "type": "Point", "coordinates": [ 118.179572220281784, 41.047082600081978 ] } },
{ "type": "Feature", "properties": { "Name": "平泉服务区", "Comment": null, "Lat": 40.922, "Lng": 118.687, "LB": "服务区", "lx": null }, "geometry": { "type": "Point", "coordinates": [ 118.686901329732677, 40.921992759858028 ] } },
{ "type": "Feature", "properties": { "Name": "宽城服务区", "Comment": null, "Lat": 40.6048, "Lng": 118.575, "LB": "服务区", "lx": null }, "geometry": { "type": "Point", "coordinates": [ 118.575058579689767, 40.604793440365029 ] } },
{ "type": "Feature", "properties": { "Name": "承德县服务区", "Comment": null, "Lat": 40.7979, "Lng": 118.214, "LB": "服务区", "lx": null }, "geometry": { "type": "Point", "coordinates": [ 118.213963510307849, 40.79792464030993 ] } },
{ "type": "Feature", "properties": { "Name": "双峰寺服务区", "Comment": null, "Lat": 41.0486, "Lng": 117.934, "LB": "服务区", "lx": "旅游环线" }, "geometry": { "type": "Point", "coordinates": [ 117.933586840260546, 41.048640170107831 ] } },
{ "type": "Feature", "properties": { "Name": "闫营子服务区", "Comment": null, "Lat": 40.9098, "Lng": 117.929, "LB": "服务区", "lx": "红色旅游路路线" }, "geometry": { "type": "Point", "coordinates": [ 117.929080719699527, 40.909778839621822 ] } },
{ "type": "Feature", "properties": { "Name": "隆化服务区", "Comment": null, "Lat": 41.207, "Lng": 117.599, "LB": "服务区", "lx": "旅游环线" }, "geometry": { "type": "Point", "coordinates": [ 117.599013449810968, 41.207040110212972 ] } },
{ "type": "Feature", "properties": { "Name": "凤山服务区", "Comment": null, "Lat": 41.2611, "Lng": 117.174, "LB": "服务区", "lx": "旅游环线" }, "geometry": { "type": "Point", "coordinates": [ 117.173695560102033, 41.261073740360871 ] } },
{ "type": "Feature", "properties": { "Name": "选将营服务区", "Comment": null, "Lat": 41.3774, "Lng": 116.904, "LB": "服务区", "lx": "旅游环线" }, "geometry": { "type": "Point", "coordinates": [ 116.90421939001294, 41.377404309761118 ] } },
{ "type": "Feature", "properties": { "Name": "丰宁服务区", "Comment": null, "Lat": 41.3869, "Lng": 116.606, "LB": "服务区", "lx": "旅游环线" }, "geometry": { "type": "Point", "coordinates": [ 116.606161589885573, 41.38693554963595 ] } },
{ "type": "Feature", "properties": { "Name": "水泉服务区", "Comment": null, "Lat": 41.4538, "Lng": 116.422, "LB": "服务区", "lx": "旅游环线" }, "geometry": { "type": "Point", "coordinates": [ 116.422119139986421, 41.45382410979488 ] } },
{ "type": "Feature", "properties": { "Name": "千松坝服务区", "Comment": null, "Lat": 41.5464, "Lng": 116.159, "LB": "服务区", "lx": "旅游环线" }, "geometry": { "type": "Point", "coordinates": [ 116.158747670468642, 41.546359890396673 ] } },
{ "type": "Feature", "properties": { "Name": "大滩服务区", "Comment": null, "Lat": 41.5617, "Lng": 115.948, "LB": "服务区", "lx": null }, "geometry": { "type": "Point", "coordinates": [ 115.948011879944374, 41.561662630226238 ] } },
{ "type": "Feature", "properties": { "Name": "安子岭服务区", "Comment": null, "Lat": 40.8459, "Lng": 117.47, "LB": "服务区", "lx": "红色旅游路路线" }, "geometry": { "type": "Point", "coordinates": [ 117.469972369829065, 40.845899769858534 ] } },
{ "type": "Feature", "properties": { "Name": "金山岭服务区", "Comment": null, "Lat": 40.6829, "Lng": 117.278, "LB": "服务区", "lx": "承德市省级美丽农村路" }, "geometry": { "type": "Point", "coordinates": [ 117.278366090023042, 40.682867320270645 ] } },
{ "type": "Feature", "properties": { "Name": "刘杖子服务区", "Comment": null, "Lat": 40.7213, "Lng": 117.723, "LB": "服务区", "lx": null }, "geometry": { "type": "Point", "coordinates": [ 117.72312998975724, 40.721306920178279 ] } },
{ "type": "Feature", "properties": { "Name": "东窝铺服务区", "Comment": null, "Lat": 40.5793, "Lng": 117.748, "LB": "服务区", "lx": null }, "geometry": { "type": "Point", "coordinates": [ 117.747908230380631, 40.579297190013335 ] } },
{ "type": "Feature", "properties": { "Name": "靳杖子服务区", "Comment": null, "Lat": 40.4008, "Lng": 117.94, "LB": "服务区", "lx": null }, "geometry": { "type": "Point", "coordinates": [ 117.939841750096775, 40.400816910272226 ] } },
{ "type": "Feature", "properties": { "Name": "钓鱼台服务区", "Comment": null, "Lat": 41.795, "Lng": 117.947, "LB": "服务区", "lx": "承德市省级美丽农村路,旅游环线" }, "geometry": { "type": "Point", "coordinates": [ 117.946751119968326, 41.794992249492793 ] } },
{ "type": "Feature", "properties": { "Name": "茅荆坝服务区", "Comment": null, "Lat": 41.4331, "Lng": 118.09, "LB": "服务区", "lx": "旅游环线" }, "geometry": { "type": "Point", "coordinates": [ 118.089680670426674, 41.433090720260566 ] } },
{ "type": "Feature", "properties": { "Name": "三沟服务区", "Comment": null, "Lat": 41.0471, "Lng": 118.18, "LB": "服务区", "lx": null }, "geometry": { "type": "Point", "coordinates": [ 118.179572220281784, 41.047082600081978 ] } },
{ "type": "Feature", "properties": { "Name": "平泉服务区", "Comment": null, "Lat": 40.922, "Lng": 118.687, "LB": "服务区", "lx": null }, "geometry": { "type": "Point", "coordinates": [ 118.686901329732677, 40.921992759858028 ] } },
{ "type": "Feature", "properties": { "Name": "宽城服务区", "Comment": null, "Lat": 40.6048, "Lng": 118.575, "LB": "服务区", "lx": null }, "geometry": { "type": "Point", "coordinates": [ 118.575058579689767, 40.604793440365029 ] } },
{ "type": "Feature", "properties": { "Name": "承德县服务区", "Comment": null, "Lat": 40.7979, "Lng": 118.214, "LB": "服务区", "lx": null }, "geometry": { "type": "Point", "coordinates": [ 118.213963510307849, 40.79792464030993 ] } },
{ "type": "Feature", "properties": { "Name": "双峰寺服务区", "Comment": null, "Lat": 41.0486, "Lng": 117.934, "LB": "服务区", "lx": "旅游环线" }, "geometry": { "type": "Point", "coordinates": [ 117.933586840260546, 41.048640170107831 ] } },
{ "type": "Feature", "properties": { "Name": "闫营子服务区", "Comment": null, "Lat": 40.9098, "Lng": 117.929, "LB": "服务区", "lx": "红色旅游路路线" }, "geometry": { "type": "Point", "coordinates": [ 117.929080719699527, 40.909778839621822 ] } },
{ "type": "Feature", "properties": { "Name": "隆化服务区", "Comment": null, "Lat": 41.207, "Lng": 117.599, "LB": "服务区", "lx": "旅游环线" }, "geometry": { "type": "Point", "coordinates": [ 117.599013449810968, 41.207040110212972 ] } },
{ "type": "Feature", "properties": { "Name": "凤山服务区", "Comment": null, "Lat": 41.2611, "Lng": 117.174, "LB": "服务区", "lx": "旅游环线" }, "geometry": { "type": "Point", "coordinates": [ 117.173695560102033, 41.261073740360871 ] } },
{ "type": "Feature", "properties": { "Name": "选将营服务区", "Comment": null, "Lat": 41.3774, "Lng": 116.904, "LB": "服务区", "lx": "旅游环线" }, "geometry": { "type": "Point", "coordinates": [ 116.90421939001294, 41.377404309761118 ] } },
{ "type": "Feature", "properties": { "Name": "丰宁服务区", "Comment": null, "Lat": 41.3869, "Lng": 116.606, "LB": "服务区", "lx": "旅游环线" }, "geometry": { "type": "Point", "coordinates": [ 116.606161589885573, 41.38693554963595 ] } },
{ "type": "Feature", "properties": { "Name": "水泉服务区", "Comment": null, "Lat": 41.4538, "Lng": 116.422, "LB": "服务区", "lx": "旅游环线" }, "geometry": { "type": "Point", "coordinates": [ 116.422119139986421, 41.45382410979488 ] } },
{ "type": "Feature", "properties": { "Name": "千松坝服务区", "Comment": null, "Lat": 41.5464, "Lng": 116.159, "LB": "服务区", "lx": "旅游环线" }, "geometry": { "type": "Point", "coordinates": [ 116.158747670468642, 41.546359890396673 ] } },
{ "type": "Feature", "properties": { "Name": "大滩服务区", "Comment": null, "Lat": 41.5617, "Lng": 115.948, "LB": "服务区", "lx": null }, "geometry": { "type": "Point", "coordinates": [ 115.948011879944374, 41.561662630226238 ] } },
{ "type": "Feature", "properties": { "Name": "安子岭服务区", "Comment": null, "Lat": 40.8459, "Lng": 117.47, "LB": "服务区", "lx": "红色旅游路路线" }, "geometry": { "type": "Point", "coordinates": [ 117.469972369829065, 40.845899769858534 ] } },
{ "type": "Feature", "properties": { "Name": "金山岭服务区", "Comment": null, "Lat": 40.6829, "Lng": 117.278, "LB": "服务区", "lx": "承德市省级美丽农村路" }, "geometry": { "type": "Point", "coordinates": [ 117.278366090023042, 40.682867320270645 ] } },
{ "type": "Feature", "properties": { "Name": "刘杖子服务区", "Comment": null, "Lat": 40.7213, "Lng": 117.723, "LB": "服务区", "lx": null }, "geometry": { "type": "Point", "coordinates": [ 117.72312998975724, 40.721306920178279 ] } },
{ "type": "Feature", "properties": { "Name": "东窝铺服务区", "Comment": null, "Lat": 40.5793, "Lng": 117.748, "LB": "服务区", "lx": null }, "geometry": { "type": "Point", "coordinates": [ 117.747908230380631, 40.579297190013335 ] } },
{ "type": "Feature", "properties": { "Name": "靳杖子服务区", "Comment": null, "Lat": 40.4008, "Lng": 117.94, "LB": "服务区", "lx": null }, "geometry": { "type": "Point", "coordinates": [ 117.939841750096775, 40.400816910272226 ] } }
]
}
